{
    "$schema": "https://vega.github.io/schema/vega-lite/v5.json",
    "title": null,
    "width": 780,
    "height": 620,
    "background": "#0e0f1a",
    "config": {
      "font": "DM Sans",
      "view": { "stroke": null },
      "axis": {
        "domain": false,
        "ticks": false,
        "labelColor": "#9a9aaa",
        "labelFontSize": 11.5,
        "labelFontWeight": 400,
        "titleColor": "#7a7a8a",
        "titleFontSize": 12,
        "titleFontWeight": 500,
        "titlePadding": 14,
        "gridColor": "#1e1f30"
      },
      "legend": { "disable": true }
    },
    "data": {
      "values": [
        { "city": "Reykjavik", "lat": 64.1, "month": "Jan", "temp": -0.5 },
        { "city": "Reykjavik", "lat": 64.1, "month": "Feb", "temp": 0.4 },
        { "city": "Reykjavik", "lat": 64.1, "month": "Mar", "temp": 0.5 },
        { "city": "Reykjavik", "lat": 64.1, "month": "Apr", "temp": 2.9 },
        { "city": "Reykjavik", "lat": 64.1, "month": "May", "temp": 6.3 },
        { "city": "Reykjavik", "lat": 64.1, "month": "Jun", "temp": 9.0 },
        { "city": "Reykjavik", "lat": 64.1, "month": "Jul", "temp": 10.6 },
        { "city": "Reykjavik", "lat": 64.1, "month": "Aug", "temp": 10.3 },
        { "city": "Reykjavik", "lat": 64.1, "month": "Sep", "temp": 7.4 },
        { "city": "Reykjavik", "lat": 64.1, "month": "Oct", "temp": 4.4 },
        { "city": "Reykjavik", "lat": 64.1, "month": "Nov", "temp": 1.1 },
        { "city": "Reykjavik", "lat": 64.1, "month": "Dec", "temp": -0.2 },
  
        { "city": "Helsinki", "lat": 60.2, "month": "Jan", "temp": -5.0 },
        { "city": "Helsinki", "lat": 60.2, "month": "Feb", "temp": -5.7 },
        { "city": "Helsinki", "lat": 60.2, "month": "Mar", "temp": -2.0 },
        { "city": "Helsinki", "lat": 60.2, "month": "Apr", "temp": 4.1 },
        { "city": "Helsinki", "lat": 60.2, "month": "May", "temp": 10.4 },
        { "city": "Helsinki", "lat": 60.2, "month": "Jun", "temp": 14.6 },
        { "city": "Helsinki", "lat": 60.2, "month": "Jul", "temp": 17.8 },
        { "city": "Helsinki", "lat": 60.2, "month": "Aug", "temp": 16.3 },
        { "city": "Helsinki", "lat": 60.2, "month": "Sep", "temp": 11.5 },
        { "city": "Helsinki", "lat": 60.2, "month": "Oct", "temp": 6.2 },
        { "city": "Helsinki", "lat": 60.2, "month": "Nov", "temp": 0.7 },
        { "city": "Helsinki", "lat": 60.2, "month": "Dec", "temp": -3.5 },
  
        { "city": "Moscow", "lat": 55.8, "month": "Jan", "temp": -9.4 },
        { "city": "Moscow", "lat": 55.8, "month": "Feb", "temp": -7.7 },
        { "city": "Moscow", "lat": 55.8, "month": "Mar", "temp": -2.0 },
        { "city": "Moscow", "lat": 55.8, "month": "Apr", "temp": 6.7 },
        { "city": "Moscow", "lat": 55.8, "month": "May", "temp": 13.2 },
        { "city": "Moscow", "lat": 55.8, "month": "Jun", "temp": 17.0 },
        { "city": "Moscow", "lat": 55.8, "month": "Jul", "temp": 19.2 },
        { "city": "Moscow", "lat": 55.8, "month": "Aug", "temp": 17.0 },
        { "city": "Moscow", "lat": 55.8, "month": "Sep", "temp": 11.3 },
        { "city": "Moscow", "lat": 55.8, "month": "Oct", "temp": 5.2 },
        { "city": "Moscow", "lat": 55.8, "month": "Nov", "temp": -1.3 },
        { "city": "Moscow", "lat": 55.8, "month": "Dec", "temp": -6.5 },
  
        { "city": "London", "lat": 51.5, "month": "Jan", "temp": 5.2 },
        { "city": "London", "lat": 51.5, "month": "Feb", "temp": 5.2 },
        { "city": "London", "lat": 51.5, "month": "Mar", "temp": 7.2 },
        { "city": "London", "lat": 51.5, "month": "Apr", "temp": 9.9 },
        { "city": "London", "lat": 51.5, "month": "May", "temp": 13.3 },
        { "city": "London", "lat": 51.5, "month": "Jun", "temp": 16.4 },
        { "city": "London", "lat": 51.5, "month": "Jul", "temp": 18.7 },
        { "city": "London", "lat": 51.5, "month": "Aug", "temp": 18.2 },
        { "city": "London", "lat": 51.5, "month": "Sep", "temp": 15.2 },
        { "city": "London", "lat": 51.5, "month": "Oct", "temp": 11.6 },
        { "city": "London", "lat": 51.5, "month": "Nov", "temp": 7.9 },
        { "city": "London", "lat": 51.5, "month": "Dec", "temp": 5.5 },
  
        { "city": "Berlin", "lat": 52.5, "month": "Jan", "temp": 0.1 },
        { "city": "Berlin", "lat": 52.5, "month": "Feb", "temp": 1.1 },
        { "city": "Berlin", "lat": 52.5, "month": "Mar", "temp": 4.5 },
        { "city": "Berlin", "lat": 52.5, "month": "Apr", "temp": 9.0 },
        { "city": "Berlin", "lat": 52.5, "month": "May", "temp": 14.0 },
        { "city": "Berlin", "lat": 52.5, "month": "Jun", "temp": 17.1 },
        { "city": "Berlin", "lat": 52.5, "month": "Jul", "temp": 19.3 },
        { "city": "Berlin", "lat": 52.5, "month": "Aug", "temp": 18.8 },
        { "city": "Berlin", "lat": 52.5, "month": "Sep", "temp": 14.5 },
        { "city": "Berlin", "lat": 52.5, "month": "Oct", "temp": 9.7 },
        { "city": "Berlin", "lat": 52.5, "month": "Nov", "temp": 4.7 },
        { "city": "Berlin", "lat": 52.5, "month": "Dec", "temp": 1.4 },
  
        { "city": "New York", "lat": 40.7, "month": "Jan", "temp": 0.6 },
        { "city": "New York", "lat": 40.7, "month": "Feb", "temp": 1.8 },
        { "city": "New York", "lat": 40.7, "month": "Mar", "temp": 5.8 },
        { "city": "New York", "lat": 40.7, "month": "Apr", "temp": 11.5 },
        { "city": "New York", "lat": 40.7, "month": "May", "temp": 17.0 },
        { "city": "New York", "lat": 40.7, "month": "Jun", "temp": 22.1 },
        { "city": "New York", "lat": 40.7, "month": "Jul", "temp": 24.9 },
        { "city": "New York", "lat": 40.7, "month": "Aug", "temp": 24.2 },
        { "city": "New York", "lat": 40.7, "month": "Sep", "temp": 20.2 },
        { "city": "New York", "lat": 40.7, "month": "Oct", "temp": 14.0 },
        { "city": "New York", "lat": 40.7, "month": "Nov", "temp": 8.6 },
        { "city": "New York", "lat": 40.7, "month": "Dec", "temp": 3.3 },
  
        { "city": "Beijing", "lat": 39.9, "month": "Jan", "temp": -3.7 },
        { "city": "Beijing", "lat": 39.9, "month": "Feb", "temp": -0.7 },
        { "city": "Beijing", "lat": 39.9, "month": "Mar", "temp": 6.1 },
        { "city": "Beijing", "lat": 39.9, "month": "Apr", "temp": 14.5 },
        { "city": "Beijing", "lat": 39.9, "month": "May", "temp": 20.4 },
        { "city": "Beijing", "lat": 39.9, "month": "Jun", "temp": 24.8 },
        { "city": "Beijing", "lat": 39.9, "month": "Jul", "temp": 26.7 },
        { "city": "Beijing", "lat": 39.9, "month": "Aug", "temp": 25.5 },
        { "city": "Beijing", "lat": 39.9, "month": "Sep", "temp": 20.1 },
        { "city": "Beijing", "lat": 39.9, "month": "Oct", "temp": 13.1 },
        { "city": "Beijing", "lat": 39.9, "month": "Nov", "temp": 4.5 },
        { "city": "Beijing", "lat": 39.9, "month": "Dec", "temp": -1.8 },
  
        { "city": "Tokyo", "lat": 35.7, "month": "Jan", "temp": 5.2 },
        { "city": "Tokyo", "lat": 35.7, "month": "Feb", "temp": 5.7 },
        { "city": "Tokyo", "lat": 35.7, "month": "Mar", "temp": 8.7 },
        { "city": "Tokyo", "lat": 35.7, "month": "Apr", "temp": 13.9 },
        { "city": "Tokyo", "lat": 35.7, "month": "May", "temp": 18.2 },
        { "city": "Tokyo", "lat": 35.7, "month": "Jun", "temp": 21.4 },
        { "city": "Tokyo", "lat": 35.7, "month": "Jul", "temp": 25.0 },
        { "city": "Tokyo", "lat": 35.7, "month": "Aug", "temp": 26.4 },
        { "city": "Tokyo", "lat": 35.7, "month": "Sep", "temp": 22.8 },
        { "city": "Tokyo", "lat": 35.7, "month": "Oct", "temp": 17.5 },
        { "city": "Tokyo", "lat": 35.7, "month": "Nov", "temp": 12.1 },
        { "city": "Tokyo", "lat": 35.7, "month": "Dec", "temp": 7.6 },
  
        { "city": "Nanjing", "lat": 32.1, "month": "Jan", "temp": 2.7 },
        { "city": "Nanjing", "lat": 32.1, "month": "Feb", "temp": 4.9 },
        { "city": "Nanjing", "lat": 32.1, "month": "Mar", "temp": 9.6 },
        { "city": "Nanjing", "lat": 32.1, "month": "Apr", "temp": 15.8 },
        { "city": "Nanjing", "lat": 32.1, "month": "May", "temp": 21.2 },
        { "city": "Nanjing", "lat": 32.1, "month": "Jun", "temp": 25.0 },
        { "city": "Nanjing", "lat": 32.1, "month": "Jul", "temp": 28.2 },
        { "city": "Nanjing", "lat": 32.1, "month": "Aug", "temp": 27.6 },
        { "city": "Nanjing", "lat": 32.1, "month": "Sep", "temp": 23.0 },
        { "city": "Nanjing", "lat": 32.1, "month": "Oct", "temp": 17.1 },
        { "city": "Nanjing", "lat": 32.1, "month": "Nov", "temp": 10.5 },
        { "city": "Nanjing", "lat": 32.1, "month": "Dec", "temp": 4.4 },
  
        { "city": "Los Angeles", "lat": 34.1, "month": "Jan", "temp": 14.3 },
        { "city": "Los Angeles", "lat": 34.1, "month": "Feb", "temp": 14.6 },
        { "city": "Los Angeles", "lat": 34.1, "month": "Mar", "temp": 15.2 },
        { "city": "Los Angeles", "lat": 34.1, "month": "Apr", "temp": 16.5 },
        { "city": "Los Angeles", "lat": 34.1, "month": "May", "temp": 17.8 },
        { "city": "Los Angeles", "lat": 34.1, "month": "Jun", "temp": 19.6 },
        { "city": "Los Angeles", "lat": 34.1, "month": "Jul", "temp": 22.1 },
        { "city": "Los Angeles", "lat": 34.1, "month": "Aug", "temp": 22.6 },
        { "city": "Los Angeles", "lat": 34.1, "month": "Sep", "temp": 21.8 },
        { "city": "Los Angeles", "lat": 34.1, "month": "Oct", "temp": 19.5 },
        { "city": "Los Angeles", "lat": 34.1, "month": "Nov", "temp": 16.5 },
        { "city": "Los Angeles", "lat": 34.1, "month": "Dec", "temp": 14.0 },
  
        { "city": "Cairo", "lat": 30.0, "month": "Jan", "temp": 13.5 },
        { "city": "Cairo", "lat": 30.0, "month": "Feb", "temp": 14.9 },
        { "city": "Cairo", "lat": 30.0, "month": "Mar", "temp": 17.8 },
        { "city": "Cairo", "lat": 30.0, "month": "Apr", "temp": 21.7 },
        { "city": "Cairo", "lat": 30.0, "month": "May", "temp": 25.5 },
        { "city": "Cairo", "lat": 30.0, "month": "Jun", "temp": 28.2 },
        { "city": "Cairo", "lat": 30.0, "month": "Jul", "temp": 29.4 },
        { "city": "Cairo", "lat": 30.0, "month": "Aug", "temp": 28.9 },
        { "city": "Cairo", "lat": 30.0, "month": "Sep", "temp": 27.0 },
        { "city": "Cairo", "lat": 30.0, "month": "Oct", "temp": 23.9 },
        { "city": "Cairo", "lat": 30.0, "month": "Nov", "temp": 18.8 },
        { "city": "Cairo", "lat": 30.0, "month": "Dec", "temp": 14.7 },
  
        { "city": "Dubai", "lat": 25.3, "month": "Jan", "temp": 19.1 },
        { "city": "Dubai", "lat": 25.3, "month": "Feb", "temp": 20.2 },
        { "city": "Dubai", "lat": 25.3, "month": "Mar", "temp": 23.1 },
        { "city": "Dubai", "lat": 25.3, "month": "Apr", "temp": 27.0 },
        { "city": "Dubai", "lat": 25.3, "month": "May", "temp": 31.2 },
        { "city": "Dubai", "lat": 25.3, "month": "Jun", "temp": 33.4 },
        { "city": "Dubai", "lat": 25.3, "month": "Jul", "temp": 35.5 },
        { "city": "Dubai", "lat": 25.3, "month": "Aug", "temp": 35.8 },
        { "city": "Dubai", "lat": 25.3, "month": "Sep", "temp": 32.8 },
        { "city": "Dubai", "lat": 25.3, "month": "Oct", "temp": 29.1 },
        { "city": "Dubai", "lat": 25.3, "month": "Nov", "temp": 24.6 },
        { "city": "Dubai", "lat": 25.3, "month": "Dec", "temp": 20.5 },
  
        { "city": "Mumbai", "lat": 19.1, "month": "Jan", "temp": 24.5 },
        { "city": "Mumbai", "lat": 19.1, "month": "Feb", "temp": 25.0 },
        { "city": "Mumbai", "lat": 19.1, "month": "Mar", "temp": 27.1 },
        { "city": "Mumbai", "lat": 19.1, "month": "Apr", "temp": 29.2 },
        { "city": "Mumbai", "lat": 19.1, "month": "May", "temp": 30.5 },
        { "city": "Mumbai", "lat": 19.1, "month": "Jun", "temp": 29.2 },
        { "city": "Mumbai", "lat": 19.1, "month": "Jul", "temp": 27.5 },
        { "city": "Mumbai", "lat": 19.1, "month": "Aug", "temp": 27.2 },
        { "city": "Mumbai", "lat": 19.1, "month": "Sep", "temp": 27.4 },
        { "city": "Mumbai", "lat": 19.1, "month": "Oct", "temp": 28.3 },
        { "city": "Mumbai", "lat": 19.1, "month": "Nov", "temp": 27.3 },
        { "city": "Mumbai", "lat": 19.1, "month": "Dec", "temp": 25.5 },
  
        { "city": "Bangkok", "lat": 13.8, "month": "Jan", "temp": 26.9 },
        { "city": "Bangkok", "lat": 13.8, "month": "Feb", "temp": 28.4 },
        { "city": "Bangkok", "lat": 13.8, "month": "Mar", "temp": 29.7 },
        { "city": "Bangkok", "lat": 13.8, "month": "Apr", "temp": 30.8 },
        { "city": "Bangkok", "lat": 13.8, "month": "May", "temp": 30.0 },
        { "city": "Bangkok", "lat": 13.8, "month": "Jun", "temp": 29.5 },
        { "city": "Bangkok", "lat": 13.8, "month": "Jul", "temp": 29.0 },
        { "city": "Bangkok", "lat": 13.8, "month": "Aug", "temp": 28.8 },
        { "city": "Bangkok", "lat": 13.8, "month": "Sep", "temp": 28.3 },
        { "city": "Bangkok", "lat": 13.8, "month": "Oct", "temp": 28.3 },
        { "city": "Bangkok", "lat": 13.8, "month": "Nov", "temp": 27.8 },
        { "city": "Bangkok", "lat": 13.8, "month": "Dec", "temp": 26.5 },
  
        { "city": "Singapore", "lat": 1.4, "month": "Jan", "temp": 26.5 },
        { "city": "Singapore", "lat": 1.4, "month": "Feb", "temp": 27.1 },
        { "city": "Singapore", "lat": 1.4, "month": "Mar", "temp": 27.5 },
        { "city": "Singapore", "lat": 1.4, "month": "Apr", "temp": 27.9 },
        { "city": "Singapore", "lat": 1.4, "month": "May", "temp": 28.3 },
        { "city": "Singapore", "lat": 1.4, "month": "Jun", "temp": 28.3 },
        { "city": "Singapore", "lat": 1.4, "month": "Jul", "temp": 27.9 },
        { "city": "Singapore", "lat": 1.4, "month": "Aug", "temp": 27.9 },
        { "city": "Singapore", "lat": 1.4, "month": "Sep", "temp": 27.6 },
        { "city": "Singapore", "lat": 1.4, "month": "Oct", "temp": 27.6 },
        { "city": "Singapore", "lat": 1.4, "month": "Nov", "temp": 27.0 },
        { "city": "Singapore", "lat": 1.4, "month": "Dec", "temp": 26.4 },
  
        { "city": "Nairobi", "lat": -1.3, "month": "Jan", "temp": 18.8 },
        { "city": "Nairobi", "lat": -1.3, "month": "Feb", "temp": 19.5 },
        { "city": "Nairobi", "lat": -1.3, "month": "Mar", "temp": 19.6 },
        { "city": "Nairobi", "lat": -1.3, "month": "Apr", "temp": 19.0 },
        { "city": "Nairobi", "lat": -1.3, "month": "May", "temp": 17.8 },
        { "city": "Nairobi", "lat": -1.3, "month": "Jun", "temp": 16.4 },
        { "city": "Nairobi", "lat": -1.3, "month": "Jul", "temp": 15.6 },
        { "city": "Nairobi", "lat": -1.3, "month": "Aug", "temp": 16.0 },
        { "city": "Nairobi", "lat": -1.3, "month": "Sep", "temp": 17.3 },
        { "city": "Nairobi", "lat": -1.3, "month": "Oct", "temp": 18.5 },
        { "city": "Nairobi", "lat": -1.3, "month": "Nov", "temp": 18.0 },
        { "city": "Nairobi", "lat": -1.3, "month": "Dec", "temp": 18.2 },
  
        { "city": "São Paulo", "lat": -23.5, "month": "Jan", "temp": 22.1 },
        { "city": "São Paulo", "lat": -23.5, "month": "Feb", "temp": 22.4 },
        { "city": "São Paulo", "lat": -23.5, "month": "Mar", "temp": 21.7 },
        { "city": "São Paulo", "lat": -23.5, "month": "Apr", "temp": 19.7 },
        { "city": "São Paulo", "lat": -23.5, "month": "May", "temp": 17.6 },
        { "city": "São Paulo", "lat": -23.5, "month": "Jun", "temp": 16.3 },
        { "city": "São Paulo", "lat": -23.5, "month": "Jul", "temp": 15.8 },
        { "city": "São Paulo", "lat": -23.5, "month": "Aug", "temp": 17.1 },
        { "city": "São Paulo", "lat": -23.5, "month": "Sep", "temp": 17.8 },
        { "city": "São Paulo", "lat": -23.5, "month": "Oct", "temp": 18.9 },
        { "city": "São Paulo", "lat": -23.5, "month": "Nov", "temp": 20.0 },
        { "city": "São Paulo", "lat": -23.5, "month": "Dec", "temp": 21.2 },
  
        { "city": "Buenos Aires", "lat": -34.6, "month": "Jan", "temp": 24.9 },
        { "city": "Buenos Aires", "lat": -34.6, "month": "Feb", "temp": 24.0 },
        { "city": "Buenos Aires", "lat": -34.6, "month": "Mar", "temp": 21.7 },
        { "city": "Buenos Aires", "lat": -34.6, "month": "Apr", "temp": 17.4 },
        { "city": "Buenos Aires", "lat": -34.6, "month": "May", "temp": 13.7 },
        { "city": "Buenos Aires", "lat": -34.6, "month": "Jun", "temp": 10.8 },
        { "city": "Buenos Aires", "lat": -34.6, "month": "Jul", "temp": 10.0 },
        { "city": "Buenos Aires", "lat": -34.6, "month": "Aug", "temp": 11.7 },
        { "city": "Buenos Aires", "lat": -34.6, "month": "Sep", "temp": 13.6 },
        { "city": "Buenos Aires", "lat": -34.6, "month": "Oct", "temp": 16.8 },
        { "city": "Buenos Aires", "lat": -34.6, "month": "Nov", "temp": 20.0 },
        { "city": "Buenos Aires", "lat": -34.6, "month": "Dec", "temp": 23.0 },
  
        { "city": "Cape Town", "lat": -33.9, "month": "Jan", "temp": 21.0 },
        { "city": "Cape Town", "lat": -33.9, "month": "Feb", "temp": 21.2 },
        { "city": "Cape Town", "lat": -33.9, "month": "Mar", "temp": 19.7 },
        { "city": "Cape Town", "lat": -33.9, "month": "Apr", "temp": 17.0 },
        { "city": "Cape Town", "lat": -33.9, "month": "May", "temp": 14.4 },
        { "city": "Cape Town", "lat": -33.9, "month": "Jun", "temp": 12.5 },
        { "city": "Cape Town", "lat": -33.9, "month": "Jul", "temp": 11.9 },
        { "city": "Cape Town", "lat": -33.9, "month": "Aug", "temp": 12.4 },
        { "city": "Cape Town", "lat": -33.9, "month": "Sep", "temp": 13.7 },
        { "city": "Cape Town", "lat": -33.9, "month": "Oct", "temp": 15.9 },
        { "city": "Cape Town", "lat": -33.9, "month": "Nov", "temp": 18.0 },
        { "city": "Cape Town", "lat": -33.9, "month": "Dec", "temp": 19.8 },
  
        { "city": "Sydney", "lat": -33.9, "month": "Jan", "temp": 22.8 },
        { "city": "Sydney", "lat": -33.9, "month": "Feb", "temp": 22.7 },
        { "city": "Sydney", "lat": -33.9, "month": "Mar", "temp": 21.3 },
        { "city": "Sydney", "lat": -33.9, "month": "Apr", "temp": 18.4 },
        { "city": "Sydney", "lat": -33.9, "month": "May", "temp": 15.3 },
        { "city": "Sydney", "lat": -33.9, "month": "Jun", "temp": 12.9 },
        { "city": "Sydney", "lat": -33.9, "month": "Jul", "temp": 12.0 },
        { "city": "Sydney", "lat": -33.9, "month": "Aug", "temp": 13.2 },
        { "city": "Sydney", "lat": -33.9, "month": "Sep", "temp": 15.5 },
        { "city": "Sydney", "lat": -33.9, "month": "Oct", "temp": 17.8 },
        { "city": "Sydney", "lat": -33.9, "month": "Nov", "temp": 19.5 },
        { "city": "Sydney", "lat": -33.9, "month": "Dec", "temp": 21.5 }
      ]
    },
    "mark": {
      "type": "rect",
      "cornerRadius": 3,
      "stroke": "#0e0f1a",
      "strokeWidth": 2.5
    },
    "encoding": {
      "x": {
        "field": "month",
        "type": "nominal",
        "sort": ["Jan", "Feb", "Mar", "Apr", "May", "Jun", "Jul", "Aug", "Sep", "Oct", "Nov", "Dec"],
        "axis": {
          "orient": "top",
          "title": null,
          "labelAngle": 0,
          "labelPadding": 12
        }
      },
      "y": {
        "field": "city",
        "type": "nominal",
        "sort": { "field": "lat", "order": "descending" },
        "axis": {
          "title": null,
          "labelPadding": 12,
          "labelFontSize": 12
        }
      },
      "color": {
        "field": "temp",
        "type": "quantitative",
        "scale": {
          "domain": [-15, -5, 0, 5, 10, 15, 20, 25, 30, 35],
          "range": [
            "#1B1F3B",
            "#2A4A7F",
            "#3C78B5",
            "#5BAACC",
            "#8ED1C0",
            "#F0F0D0",
            "#FDD576",
            "#F5A623",
            "#E8712B",
            "#D13B29",
            "#7A0C1E"
          ],
          "interpolate": "lab"
        },
        "legend": null
      },
      "tooltip": [
        { "field": "city", "type": "nominal", "title": "City" },
        { "field": "month", "type": "nominal", "title": "Month" },
        { "field": "temp", "type": "quantitative", "title": "Avg Temp (°C)", "format": ".1f" }
      ]
    }
  }